City_ID,City,Lat,Lng,Max Temp,Humidity,Cloudiness,Wind Speed,Country,Date
0,ilulissat,69.2167,-51.1,-4.99,74,100,4.12,GL,1702176286
1,isafjordur,66.0755,-23.124,-2.67,87,77,2.33,IS,1702176286
2,tidjikja,18.5564,-11.4271,19.86,24,65,5.7,MR,1702176286
3,katsuura,35.1333,140.3,17.24,43,0,1.01,JP,1702176286
4,port alfred,-33.5906,26.891,13.99,94,97,0.45,ZA,1702176286
5,port mathurin,-19.6833,63.4167,26.21,76,22,4.76,MU,1702176286
6,bredasdorp,-34.5322,20.0403,14.61,88,38,1.84,ZA,1702176287
7,port-aux-francais,-49.35,70.2167,3.12,79,96,11.59,TF,1702176287
8,emerald,-23.5333,148.1667,30.75,42,0,7.95,AU,1702176287
9,albany,42.6001,-73.9662,9.36,85,100,2.65,US,1702176287
10,vostochnyy,55.8167,37.8667,-12.72,94,100,4.55,RU,1702176287
11,aromashevo,56.8602,68.6375,-31.08,100,98,2.22,RU,1702176287
12,buckeye,33.3703,-112.5838,16.43,13,0,5.14,US,1702176287
13,papatowai,-46.5619,169.4708,13.86,50,64,6.99,NZ,1702176287
14,grytviken,-54.2811,-36.5092,3.99,87,29,5.25,GS,1702176288
15,tiksi,71.6872,128.8694,-24.15,99,100,1.93,RU,1702176288
16,tobruk,32.0836,23.9764,16.25,61,96,3.92,LY,1702176288
17,wuwei,37.9281,102.6414,1.47,45,94,0.26,CN,1702176288
18,adamstown,-25.066,-130.1015,21.56,79,100,2.77,PN,1702176288
19,placido de castro,-10.3353,-67.1856,24.51,73,64,1.22,BR,1702176288
20,la'ie,21.6477,-157.9253,27.98,69,1,1.34,US,1702176288
21,mathba,22.2855,89.9629,22.14,62,0,2.71,BD,1702176289
22,ha tinh,18.3333,105.9,25.81,75,66,0.73,VN,1702176027
23,trelaze,47.45,-0.4667,9.18,84,0,4.12,FR,1702176289
24,ribeira grande,38.5167,-28.7,18.21,90,100,9.39,PT,1702176289
25,waitangi,-43.9535,-176.5597,12.68,93,100,0.89,NZ,1702176289
26,stanley,54.868,-1.6985,7.38,91,40,6.17,GB,1702176289
27,zgurovka,50.5028,31.7849,-2.41,97,100,2.36,UA,1702176290
28,selfoss,63.9331,-20.9971,-6.09,67,14,3.36,IS,1702176290
29,nizhniy lomov,53.5304,43.6766,-12.24,94,100,5.7,RU,1702176290
30,kirillov,59.863,38.3813,-15.01,89,100,4.7,RU,1702176290
31,fort bragg,35.139,-79.006,18.32,82,75,2.06,US,1702176290
32,blackmans bay,-43.0167,147.3167,20.85,49,0,0.45,AU,1702176290
33,punta arenas,-53.15,-70.9167,9.06,81,100,6.17,CL,1702176291
34,bethel,41.3712,-73.414,9.17,87,20,0.0,US,1702176291
35,anadyr,64.75,177.4833,-25.72,76,0,4.0,RU,1702176291
36,margaret river,-33.95,115.0667,23.76,29,0,0.34,AU,1702176291
37,ushuaia,-54.8,-68.3,7.81,81,20,6.17,AR,1702176291
38,lihue,21.9789,-159.3672,25.77,69,0,3.09,US,1702176291
39,hadibu,12.65,54.0333,24.63,75,57,5.19,YE,1702176292
40,benguela,-12.5763,13.4055,26.65,82,100,0.21,AO,1702176292
41,sao domingos do prata,-19.865,-42.9683,19.74,99,97,0.76,BR,1702176292
42,narasannapeta,18.4167,84.05,23.81,67,10,1.95,IN,1702176292
43,constantia,44.1833,28.65,-1.62,87,74,4.34,RO,1702176264
44,lazaro cardenas,17.9583,-102.2,25.28,79,3,1.13,MX,1702176292
45,hammerfest,70.6634,23.6821,-5.75,58,99,6.17,NO,1702176293
46,bilibino,68.0546,166.4372,-18.99,100,98,0.82,RU,1702176293
47,usogorsk,63.4106,48.6872,-27.96,100,40,1.54,RU,1702176293
48,greymouth,-42.4667,171.2,15.16,57,1,6.77,NZ,1702176081
49,invercargill,-46.4,168.35,13.22,55,25,7.36,NZ,1702176294
50,aasiaat,68.7098,-52.8699,-12.58,87,100,3.48,GL,1702176294
51,chibougamau,49.9168,-74.3659,0.79,93,100,6.69,CA,1702176295
52,umm kaddadah,13.6017,26.6876,17.41,17,58,3.42,SD,1702176295
53,lompoc,34.6391,-120.4579,15.08,67,0,3.58,US,1702176295
54,yarmouth,41.7057,-70.2286,9.49,93,100,3.09,US,1702176296
55,yellowknife,62.456,-114.3525,-9.71,85,100,6.17,CA,1702176296
56,caleta de carquin,-11.0925,-77.6267,19.93,84,100,4.01,PE,1702176296
57,vila velha,-20.3297,-40.2925,22.97,91,75,4.12,BR,1702176296
58,el porvenir,13.7617,-87.3458,24.63,75,13,2.94,HN,1702176296
59,puerto ayora,-0.7393,-90.3518,24.19,96,35,2.24,EC,1702176297
60,truckee,39.328,-120.1833,2.89,90,75,1.54,US,1702176057
61,hermanus,-34.4187,19.2345,16.16,81,26,3.94,ZA,1702176297
62,kodiak,57.79,-152.4072,-7.27,73,0,2.57,US,1702176201
63,port douglas,-16.4833,145.4667,28.33,65,68,5.78,AU,1702176297
64,puerto natales,-51.7236,-72.4875,8.16,93,100,1.41,CL,1702176297
65,hasilpur,29.7122,72.5553,15.36,29,53,1.65,PK,1702176297
66,kourou,5.1552,-52.6478,24.03,88,33,2.45,GF,1702176298
67,edinburgh of the seven seas,-37.0676,-12.3116,13.28,79,100,7.06,SH,1702176298
68,whitehorse,60.7161,-135.0538,-9.95,90,100,3.6,CA,1702176298
69,trairi,-3.2778,-39.2689,26.63,76,71,6.22,BR,1702176238
70,west island,-12.1568,96.8225,26.99,78,75,7.2,CC,1702176298
71,saint-philippe,-21.3585,55.7679,24.77,85,53,4.97,RE,1702176298
72,college,64.8569,-147.8028,-24.19,74,20,0.0,US,1702176298
73,hawaiian paradise park,19.5933,-154.9731,26.73,84,0,3.6,US,1702176298
74,olonkinbyen,70.9221,-8.7187,-5.76,63,99,3.98,SJ,1702176299
75,nyurba,63.2842,118.3319,-24.95,97,100,3.04,RU,1702176299
76,tura,25.5198,90.2201,20.64,51,0,0.76,IN,1702176299
77,galesong,-5.3166,119.3661,31.01,69,93,2.19,ID,1702176299
78,castillos,-34.1667,-53.8333,15.28,92,66,3.08,UY,1702176299
79,abra pampa,-22.7205,-65.697,12.45,66,97,5.5,AR,1702176299
80,badger,64.8,-147.5333,-24.24,75,20,0.0,US,1702176299
81,inverell,-29.7833,151.1167,37.04,25,0,2.68,AU,1702176299
82,nova sintra,14.8667,-24.7167,22.53,71,69,4.27,CV,1702176300
83,afua,-0.1567,-50.3867,25.02,90,89,2.28,BR,1702176300
84,ain bessem,36.2933,3.6732,7.58,64,27,1.51,DZ,1702176300
85,ola,59.5833,151.2833,-3.25,82,100,8.71,RU,1702176300
86,charef,34.621,2.795,5.46,82,65,2.47,DZ,1702176300
87,tolanaro,-25.0319,46.9987,22.04,88,20,5.14,MG,1702176300
88,roghun,38.7826,69.8708,-2.25,83,20,3.46,TJ,1702176300
89,kirensk,57.7853,108.1119,-31.85,97,99,1.7,RU,1702176301
90,tagta,41.6504,59.9164,-5.03,50,0,8.23,TM,1702176301
91,newman,37.3138,-121.0208,10.72,63,89,0.89,US,1702176301
92,al jumum,21.6169,39.6981,24.49,71,47,0.91,SA,1702176301
93,yangquan,37.8575,113.5633,-2.54,83,100,3.87,CN,1702176088
94,grand falls-windsor,48.9332,-55.6649,0.28,83,7,1.82,CA,1702176302
95,nuuk,64.1835,-51.7216,-0.66,80,100,2.06,GL,1702176120
96,nemuro,43.3236,145.575,3.7,51,72,4.66,JP,1702176302
97,cidreira,-30.1811,-50.2056,20.38,78,71,9.34,BR,1702176303
98,ma'rib,15.4591,45.3253,13.11,29,2,1.99,YE,1702176303
99,fort mcmurray,56.7268,-111.381,-9.23,85,100,2.06,CA,1702176303
100,kavaratti,10.5669,72.642,28.6,74,73,4.58,IN,1702176304
101,shihezi,44.3,86.0333,-5.89,86,39,0.49,CN,1702176304
102,tut,37.7953,37.9161,6.05,93,100,1.19,TR,1702176304
103,rio grande,-32.035,-52.0986,19.97,76,13,8.26,BR,1702176276
104,ancud,-41.8697,-73.8203,10.74,94,70,1.86,CL,1702176304
105,lycksele,64.5954,18.6735,-9.07,92,100,2.06,SE,1702176305
106,san luis de la loma,17.2706,-100.8939,25.62,79,84,2.09,MX,1702176305
107,union city,37.5958,-122.0192,12.97,53,0,3.09,US,1702176305
108,sandnessjoen,66.0217,12.6316,-3.71,79,85,10.76,NO,1702176306
109,east london,-33.0153,27.9116,15.8,88,100,3.93,ZA,1702176306
110,quellon,-43.1167,-73.6167,11.66,85,100,2.89,CL,1702176307
111,iqaluit,63.7506,-68.5145,-5.15,93,100,4.63,CA,1702176307
112,sinabang,2.4803,96.3801,27.37,81,99,2.08,ID,1702176307
113,gulf shores,30.246,-87.7008,22.03,83,100,3.09,US,1702176308
114,ponta delgada,37.7333,-25.6667,18.44,94,75,6.17,PT,1702176308
115,jamestown,42.097,-79.2353,13.64,85,100,4.12,US,1702176308
116,lauro de freitas,-12.8944,-38.3272,27.01,78,40,6.17,BR,1702176072
117,hobyo,5.3505,48.5268,26.59,76,70,8.61,SO,1702176309
118,bac lieu,9.285,105.7244,28.39,74,99,5.43,VN,1702176310
119,san narciso,15.0143,120.0803,31.0,60,9,1.12,PH,1702176310
120,camacupa,-12.0167,17.4833,15.65,97,89,1.46,AO,1702176310
121,dogonbadan,30.3586,50.7981,8.05,76,0,0.0,IR,1702176311
122,chonchi,-42.6128,-73.8092,10.56,94,61,1.24,CL,1702176311
123,vilyuchinsk,52.9306,158.4028,1.07,98,100,8.45,RU,1702176311
124,avarua,-21.2078,-159.775,26.03,83,100,10.29,CK,1702176311
125,christchurch,-43.5333,172.6333,15.79,47,100,4.12,NZ,1702175718
126,kairouan,35.6781,10.0963,14.01,67,75,3.6,TN,1702176311
127,boa vista,2.8197,-60.6733,25.99,83,40,1.54,BR,1702176279
128,tahe,52.3333,124.7333,-21.18,61,3,5.6,CN,1702176312
129,vilyuysk,63.7553,121.6247,-24.88,96,100,3.27,RU,1702176312
130,moires,35.0532,24.8744,10.68,81,98,0.45,GR,1702176312
131,tarija,-21.5355,-64.7296,18.64,88,100,0.94,BO,1702176312
132,port isabel,26.0734,-97.2086,23.92,91,0,2.06,US,1702176313
133,kingston,17.997,-76.7936,27.53,78,20,1.03,JM,1702176237
134,port lincoln,-34.7333,135.8667,13.62,90,100,11.21,AU,1702176313
135,vetlanda,57.4289,15.0776,0.59,98,100,3.38,SE,1702176313
136,petropavlovsk-kamchatsky,53.0452,158.6483,0.25,95,100,6.71,RU,1702176314
137,st. john's,47.5649,-52.7093,2.1,87,75,10.8,CA,1702176260
138,khorugh,37.4897,71.553,-8.15,87,72,0.22,TJ,1702176314
139,ajdabiya,30.7554,20.2263,14.27,76,92,2.72,LY,1702176314
140,santana,-0.0583,-51.1817,29.1,74,40,3.6,BR,1702176066
141,kingscliff,-28.2667,153.5667,29.29,57,64,6.17,AU,1702175996
142,paracuru,-3.41,-39.0306,27.84,75,65,6.88,BR,1702176315
143,fisterra,42.9049,-9.2629,17.64,96,100,9.07,ES,1702176316
144,talnakh,69.4865,88.3972,-34.38,99,100,3.45,RU,1702176316
145,broome,42.2506,-75.833,10.21,66,20,3.6,US,1702176316
146,flying fish cove,-10.4217,105.6791,27.82,65,40,4.63,CX,1702176316
147,mandiana,10.6333,-8.6833,22.72,17,37,2.47,GN,1702176316
148,baixo guandu,-19.5189,-41.0158,22.65,95,100,0.63,BR,1702176316
149,enewetak,11.3474,162.3373,27.55,79,10,8.21,MH,1702176317
150,isabela,6.7085,121.9711,30.03,71,46,3.16,PH,1702176317
151,south bay,26.664,-80.7162,20.57,82,58,3.53,US,1702176317
152,kone,-21.0595,164.8658,29.33,40,99,4.5,NC,1702176317
153,coronel dorrego,-38.7187,-61.2873,16.84,70,0,4.69,AR,1702176318
154,shimoda,34.6667,138.95,18.95,49,0,1.64,JP,1702176318
155,lerwick,60.1545,-1.1494,8.0,89,100,8.93,GB,1702176318
156,murakami,38.2333,139.4833,13.94,77,100,2.25,JP,1702176318
157,richfield,44.8833,-93.283,-1.29,87,100,7.72,US,1702176267
158,ust-nera,64.5667,143.2,-16.26,99,100,1.88,RU,1702176319
159,tieli,46.95,128.05,-21.95,84,31,2.83,CN,1702176319
160,fale old settlement,-9.3852,-171.2468,29.05,74,100,3.12,TK,1702176319
161,roma,43.2128,-75.4557,11.04,80,100,3.6,US,1702176250
162,aykhal,66.0,111.5,-29.28,98,100,2.28,RU,1702176319
163,champasak,14.75,106.0,26.49,52,92,0.67,LA,1702176320
164,port elizabeth,-33.918,25.5701,13.94,87,0,2.57,ZA,1702176320
165,panjab,34.388,67.0233,-4.1,53,99,1.16,AF,1702176320
166,sitka,57.0531,-135.33,2.94,93,100,1.54,US,1702176320
167,essaouira,31.5125,-9.77,14.72,58,0,0.51,MA,1702176320
168,mersrags,57.3354,23.1246,-2.75,89,100,5.7,LV,1702176321
169,xam nua,20.4197,104.0439,26.18,56,2,1.1,LA,1702176321
170,tazovsky,67.4667,78.7,-38.11,100,52,1.97,RU,1702176322
171,beihai,21.4833,109.1,23.78,82,75,5.13,CN,1702176322
172,santyoku,37.4406,129.1708,11.83,73,97,3.91,KR,1702176322
173,acapulco de juarez,16.8634,-99.8901,27.9,78,100,1.54,MX,1702176303
174,lata,40.1629,-8.3327,17.12,96,100,1.4,PT,1702176323
175,linden,6.0,-58.3,22.62,96,11,1.29,GY,1702176324
176,patong,7.8961,98.2966,29.08,77,20,1.95,TH,1702176324
177,trincomalee,8.5711,81.2335,27.33,80,88,3.53,LK,1702176324
178,pursat,12.3333,103.6667,30.16,58,94,1.22,KH,1702176325
179,weno,7.4515,151.8468,29.97,79,100,3.6,FM,1702176325
180,kapa'a,22.0752,-159.319,26.18,76,0,3.09,US,1702176325
181,ketchikan,55.3422,-131.6461,7.99,93,100,4.63,US,1702176325
182,puerto deseado,-47.7503,-65.8938,11.63,53,4,2.99,AR,1702176326
183,glace bay,46.1969,-59.957,-0.62,93,20,2.06,CA,1702176326
184,ust'-kulom,61.6864,53.6902,-29.11,100,96,0.56,RU,1702176326
185,balaklava,44.5,33.6,6.32,76,100,1.5,UA,1702176326
186,wailua homesteads,22.0669,-159.378,25.44,76,0,3.09,US,1702176326
187,chui,-33.6971,-53.4616,16.1,87,68,3.41,UY,1702176326
188,howrah,22.5892,88.3103,19.0,82,3,1.54,IN,1702176327
189,shaowu,27.3409,117.4831,19.96,77,41,1.25,CN,1702176327
190,buala,-8.145,159.5921,28.49,79,100,2.36,SB,1702176327
191,la passe,45.5549,-0.8967,11.1,90,100,3.68,FR,1702176327
192,kapuskasing,49.4169,-82.4331,1.05,100,100,5.66,CA,1702176145
193,vadso,70.0744,29.7487,-11.91,85,100,8.75,NO,1702176328
194,armacao de buzios,-22.7469,-41.8817,22.03,78,100,2.21,BR,1702176039
195,arraial do cabo,-22.9661,-42.0278,23.02,71,100,2.91,BR,1702176328
196,juegang,32.3174,121.1855,13.24,98,100,6.2,CN,1702176328
197,omu-aran,8.1333,5.1,21.1,35,2,0.94,NG,1702176328
198,minas de marcona,-15.2119,-75.1103,15.27,80,100,4.56,PE,1702176329
199,mariental,-24.6333,17.9667,19.9,44,97,5.11,NA,1702176329
200,mont-dore,-22.2833,166.5833,29.99,99,100,8.01,NC,1702176329
201,mount darwin,-16.7725,31.5838,21.07,56,55,1.01,ZW,1702176329
202,tionk essil,12.7856,-16.5217,23.87,21,91,3.04,SN,1702176330
203,cabo san lucas,22.8909,-109.9124,24.73,74,0,1.54,MX,1702175986
204,thompson,55.7435,-97.8558,-7.91,93,100,1.54,CA,1702176330
205,liepaja,56.5419,21.0367,-3.01,93,100,4.63,LV,1702176330
206,klyuchi,52.2667,79.1667,-21.0,77,48,1.67,RU,1702176330
207,hithadhoo,-0.6,73.0833,28.04,76,100,1.68,MV,1702176330
208,champerico,14.3,-91.9167,26.56,77,45,3.01,GT,1702176331
209,freetown,8.484,-13.2299,26.84,89,40,3.09,SL,1702176331
210,mogadishu,2.0371,45.3438,26.61,79,14,6.03,SO,1702176331
211,al hazm,16.1641,44.7769,13.67,31,2,0.99,YE,1702176331
212,mount gambier,-37.8333,140.7667,15.9,56,100,6.44,AU,1702176331
213,palikir - national government center,6.9248,158.1611,29.47,79,100,5.14,FM,1702176332
214,utrik,11.2278,169.8474,27.29,80,64,8.39,MH,1702176332
215,shush,32.1942,48.2436,17.85,46,32,2.27,IR,1702176332
216,bondoukou,8.0333,-2.8,23.69,29,50,0.75,CI,1702176332
217,baise city,23.8997,106.6133,24.6,72,90,1.35,CN,1702176332
218,birzebbuga,35.8258,14.5269,14.38,72,20,2.57,MT,1702176333
219,alice springs,-23.7,133.8833,15.75,72,100,8.75,AU,1702176315
220,grand gaube,-20.0064,57.6608,25.77,91,100,1.79,MU,1702176333
221,poronaysk,49.2167,143.1167,-11.35,68,29,7.84,RU,1702176333
222,portland,45.5234,-122.6762,6.73,94,100,6.69,US,1702176026
223,mejit,10.2753,170.8646,27.37,81,40,8.72,MH,1702176333
224,bodo,67.28,14.405,-0.98,59,100,9.77,NO,1702176333
225,afaahiti,-17.75,-149.2833,28.93,85,90,10.35,PF,1702176334
226,lasem,-6.6922,111.4527,30.29,64,97,3.33,ID,1702176334
227,tangalle,6.024,80.7911,25.09,83,60,2.07,LK,1702176334
228,rakops,-21.0167,24.3333,21.49,73,100,3.24,BW,1702176334
229,pasuquin,18.3328,120.6177,29.97,79,40,3.09,PH,1702176335
230,kismayo,-0.3582,42.5454,26.74,76,23,4.83,SO,1702176335
231,porto novo,6.4965,2.6036,26.02,86,3,1.32,BJ,1702176335
232,borovichi,58.3878,33.9155,-12.21,92,100,4.92,RU,1702176336
233,ylitornio,66.3089,23.6773,-14.65,97,100,1.61,FI,1702176336
234,tralee,52.2704,-9.7026,6.96,95,90,3.45,IE,1702176336
235,bei'an,24.5399,109.533,22.44,83,100,2.79,CN,1702176337
236,comodoro rivadavia,-45.8667,-67.5,16.92,45,0,7.72,AR,1702176243
237,qaqortoq,60.7167,-46.0333,-5.86,76,77,2.46,GL,1702176337
238,haiku-pauwela,20.9219,-156.3051,26.01,71,40,9.26,US,1702176338
239,luba,3.4568,8.5547,23.94,83,57,2.83,GQ,1702176338
240,crane,31.3974,-102.3501,6.54,42,0,6.62,US,1702176338
241,tarawa,1.419,172.984,31.05,74,75,2.57,KI,1702176338
242,kasungu,-13.0333,33.4833,21.02,81,97,3.61,MW,1702176339
243,richards bay,-28.783,32.0377,20.93,95,100,4.86,ZA,1702176339
244,barah,13.7,30.3667,18.1,23,6,2.85,SD,1702176339
245,codrington,-38.2667,141.9667,15.63,64,99,7.63,AU,1702176339
246,san rafael,-34.6177,-68.3301,22.6,44,0,3.96,AR,1702176340
247,masina,-4.3836,15.3914,22.02,97,100,0.43,CD,1702176340
248,san antonio de pale,-1.4014,5.6325,27.16,80,51,5.23,GQ,1702176341
249,segezha,63.7415,34.3222,-14.71,90,100,6.21,RU,1702176341
250,gbongan,7.4667,4.35,22.23,97,6,0.26,NG,1702176341
251,franklin,39.9667,-83.0166,14.29,95,100,5.14,US,1702175762
252,bestobe,52.4994,73.0975,-24.39,74,83,2.39,KZ,1702176341
253,erdenet,49.0333,104.0833,-22.89,95,47,1.02,MN,1702176341
254,bamboo flat,11.7,92.7167,28.05,89,20,1.03,IN,1702176341
255,mersa matruh,31.3525,27.2453,15.11,63,0,5.14,EG,1702176342
256,burang,30.25,81.1667,-10.35,51,0,1.45,CN,1702176342
257,san pedro,14.35,121.0167,31.86,64,20,4.02,PH,1702176342
258,taltal,-25.4,-70.4833,17.14,85,25,1.18,CL,1702176342
259,huangnihe,43.5583,128.0239,-12.5,52,1,4.71,CN,1702176342
260,viqueque,-8.8673,126.3658,30.02,69,52,2.97,TL,1702176343
261,talakan,50.3167,130.3667,-23.1,82,100,4.37,RU,1702176343
262,srikakulam,18.3,83.9,23.8,71,16,2.17,IN,1702176343
263,sao sepe,-30.1606,-53.5653,16.14,87,58,3.28,BR,1702176343
264,naze,28.3667,129.4833,22.51,75,99,5.41,JP,1702176343
265,elliot,-31.3333,27.85,9.9,98,100,1.95,ZA,1702176343
266,lethem,3.3803,-59.7968,25.4,76,16,3.04,GY,1702176344
267,lebu,-37.6167,-73.65,12.17,83,0,8.98,CL,1702176344
268,ulsteinvik,62.3432,5.8487,3.51,65,97,0.89,NO,1702176344
269,todos santos,23.45,-110.2167,23.02,61,0,3.33,MX,1702176219
270,argo,37.6333,22.7333,3.74,77,9,1.58,GR,1702176344
271,wynyard,-41.0,145.7167,16.91,63,87,3.48,AU,1702176344
272,touros,-5.1989,-35.4608,26.45,71,80,6.51,BR,1702176344
273,sussex,41.1834,-74.6663,8.64,87,0,0.0,US,1702176345
274,pasni,25.2631,63.471,22.16,33,8,6.1,PK,1702176345
275,minab,27.1467,57.0801,19.67,48,0,0.85,IR,1702176345
276,nikolayevsk-on-amure,53.1406,140.73,-19.66,92,100,9.37,RU,1702176345
277,chul'man,56.8479,124.9104,-30.63,93,100,4.39,RU,1702176345
278,rosetta,31.4044,30.4164,15.0,64,97,4.28,EG,1702176345
279,belmonte,-15.8631,-38.8828,24.65,88,13,2.27,BR,1702176346
280,hasaki,35.7333,140.8333,18.22,54,0,0.74,JP,1702176346
281,meadville,41.6414,-80.1515,13.76,93,100,5.14,US,1702176346
282,guerrero negro,27.9769,-114.0611,19.89,43,0,1.47,MX,1702176346
283,baiti,13.745,-14.7482,24.94,15,40,4.22,SN,1702176346
284,turkan,40.3639,50.215,12.1,82,75,5.14,AZ,1702176346
285,boende,-0.2167,20.8667,21.85,99,100,1.55,CD,1702176347
286,barra de santo antonio,-9.4047,-35.5072,24.6,77,98,3.81,BR,1702176347
287,cockburn town,21.4612,-71.1419,26.44,78,92,12.3,TC,1702176347
288,anar darah,32.7587,61.654,8.45,41,0,0.89,AF,1702176347
289,vila do maio,15.1333,-23.2167,24.44,76,63,4.85,CV,1702176347
290,monaco,43.7314,7.419,15.87,59,0,3.09,MC,1702176347
291,midvagur,62.0511,-7.1939,4.46,70,20,4.12,FO,1702176348
292,westport,41.1415,-73.3579,10.18,90,75,0.89,US,1702176237
293,mil'kovo,55.6078,37.7956,-12.59,94,100,5.15,RU,1702176348
294,santarem,-2.4431,-54.7083,26.07,94,0,1.03,BR,1702176300
295,south venice,27.0531,-82.4243,23.01,92,100,2.57,US,1702176348
296,alesund,62.4723,6.1549,3.52,73,75,2.57,NO,1702176097
297,eyl,7.9803,49.8164,24.11,78,15,6.76,SO,1702176349
298,korce,40.6186,20.7808,1.01,68,35,1.99,AL,1702176349
299,gadzhiyevo,69.2551,33.3362,-14.81,95,58,6.94,RU,1702176349
300,conception bay south,47.4999,-52.9981,1.97,90,100,8.92,CA,1702176350
301,saipan,15.1355,145.701,30.39,70,40,7.2,MP,1702176350
302,letterkenny,54.95,-7.7333,5.82,92,38,3.31,IE,1702176350
303,verkhovazh'ye,60.7472,42.0465,-19.36,81,89,3.76,RU,1702176351
304,sanctuary point,-35.1114,150.629,24.3,90,100,3.43,AU,1702176351
305,udachny,66.4167,112.4,-29.2,82,100,2.2,RU,1702176351
306,hastings,50.8552,0.5729,10.44,79,1,12.83,GB,1702176235
307,lianshan,40.7643,120.8533,-6.32,24,100,8.37,CN,1702176352
308,poso,-1.3959,120.7524,30.87,61,57,1.86,ID,1702176352
309,daoukro,7.0591,-3.9631,20.84,67,14,1.12,CI,1702176352
310,yigo village,13.5361,144.8886,30.62,68,40,5.66,GU,1702176353
311,longyearbyen,78.2186,15.6401,-5.09,63,75,4.63,SJ,1702176262
312,sao felix do xingu,-6.6447,-51.995,23.63,89,22,0.1,BR,1702176353
313,tucuma,-0.1833,-50.05,25.86,85,89,2.46,BR,1702176126
314,pakokku,21.3333,95.1,24.02,77,48,3.59,MM,1702176353
315,san mariano,7.5,126.0,27.34,80,76,2.58,PH,1702176353
316,smidovich,48.6,133.8167,-21.62,81,2,7.94,RU,1702176353
317,tazacorte,28.629,-17.9293,18.97,92,20,4.12,ES,1702176353
318,peniche,39.3558,-9.3811,17.28,96,100,3.69,PT,1702176113
319,lorengau,-2.0226,147.2712,27.0,86,100,5.97,PG,1702176354
320,vernon,50.2581,-119.2691,1.83,91,100,5.14,CA,1702176354
321,san felipe,10.3399,-68.7425,22.49,99,29,0.8,VE,1702176354
322,praia da vitoria,38.7333,-27.0667,19.14,82,40,9.7,PT,1702176354
323,chai badan,15.2,101.1333,32.29,56,67,0.52,TH,1702176354
324,leua,48.2156,18.6071,-0.49,93,100,5.44,SK,1702176354
325,amalapuram,16.5833,82.0167,24.81,78,9,2.13,IN,1702176355
326,ilhabela,-23.7781,-45.3581,21.63,86,97,2.81,BR,1702176355
327,maraba,-5.3686,-49.1178,29.1,79,75,1.03,BR,1702176308
328,awjilah,29.1081,21.2869,13.53,83,100,1.74,LY,1702176355
329,bayanhongor,46.7167,100.1167,-15.81,71,100,0.71,MN,1702176239
330,altay,47.8667,88.1167,-14.79,84,97,1.57,CN,1702176355
331,ust'-kalmanka,52.1207,83.305,-21.69,94,81,1.24,RU,1702176355
332,hassi messaoud,31.6804,6.0729,11.36,49,0,3.01,DZ,1702176356
333,borodulikha,50.7184,80.9295,-26.07,91,8,2.19,KZ,1702176356
334,andergrove,-21.0833,149.1833,30.91,65,36,9.48,AU,1702176356
335,vrutok,41.7686,20.8392,1.91,64,40,2.2,MK,1702176356
336,itamaraca,-7.7478,-34.8256,27.03,73,100,4.72,BR,1702176356
337,jianguang,28.1938,115.7836,19.42,72,99,2.56,CN,1702176356
338,talas,38.6908,35.5538,2.37,93,75,0.51,TR,1702176356
339,vorgashor,67.5833,63.95,-23.5,99,100,2.13,RU,1702176357
340,san patricio,28.017,-97.5169,23.05,39,100,9.31,US,1702176357
341,hamilton,39.1834,-84.5333,11.16,92,100,4.12,US,1702176171
342,roswell,34.0232,-84.3616,15.59,96,100,3.6,US,1702176357
343,tamiahua,21.2667,-97.45,22.5,93,4,2.52,MX,1702176323
344,iskateley,67.6803,53.1512,-27.21,92,12,2.68,RU,1702176357
345,zaozersk,69.4005,32.4476,-16.97,95,50,4.65,RU,1702176357
346,putnam,36.1667,-85.65,14.32,93,100,5.43,US,1702176358
347,ambovombe,-25.1667,46.0833,22.41,83,0,0.36,MG,1702176358
348,al mishkhab,31.8042,44.4911,12.06,49,67,2.48,IQ,1702176358
349,burutu,5.3509,5.5076,25.62,86,3,2.03,NG,1702176358
350,camana,-16.6228,-72.7111,19.81,82,97,1.85,PE,1702176338
351,huangpi,30.8845,114.3779,10.06,87,100,4.0,CN,1702176358
352,yinchuan,38.4681,106.2731,3.31,27,100,2.08,CN,1702176359
353,chardara,41.2547,67.9692,-0.95,65,4,3.42,KZ,1702176359
354,togur,58.3631,82.8265,-27.85,97,100,2.83,RU,1702176359
355,palu,-0.8917,119.8707,31.82,60,98,1.94,ID,1702176359
356,forbes,-33.3833,148.0167,38.84,20,31,4.2,AU,1702176359
357,bechar,31.6167,-2.2167,12.97,56,44,1.43,DZ,1702176359
358,pisco,-13.7,-76.2167,20.03,77,100,2.57,PE,1702176359
359,iguai,-14.7564,-40.0892,20.96,96,67,0.87,BR,1702176360
360,ingeniero guillermo n. juarez,-23.9,-61.85,28.15,61,97,4.31,AR,1702176360
361,gebeit,21.0667,36.3167,20.33,91,92,2.81,SD,1702176360
362,krizevci,46.0219,16.5425,0.16,92,100,2.92,HR,1702176360
363,egilsstadir,65.2653,-14.3948,-3.05,93,75,0.51,IS,1702176360
364,novyy urgal,51.0736,132.5642,-21.98,67,46,2.1,RU,1702176360
365,sur,22.5667,59.5289,22.27,52,5,1.98,OM,1702176360
366,oyem,1.5995,11.5793,20.07,99,98,1.05,GA,1702176361
367,marhaura,25.9667,84.8667,16.96,28,0,3.68,IN,1702176361
368,zhanaozen,43.3,52.8,-0.86,34,100,11.48,KZ,1702176361
369,santa vitoria do palmar,-33.5189,-53.3681,16.96,83,66,3.64,BR,1702176361
370,leava,-14.3,-178.1667,28.59,71,96,3.25,WF,1702176361
371,port hedland,-20.3167,118.5667,32.03,23,5,8.23,AU,1702176361
372,agenebode,7.106,6.6966,23.22,65,0,1.27,NG,1702176361
373,saint-pierre,-21.3393,55.4781,25.32,69,0,3.09,RE,1702176362
374,tsiombe,-25.3,45.4833,22.25,85,0,2.34,MG,1702176362
375,taguatinga,-12.3857,-46.5711,27.12,45,55,0.84,BR,1702176362
376,olyokminsk,60.3736,120.4264,-26.52,89,100,4.38,RU,1702176362
377,guozhen,34.3659,107.359,7.1,69,99,2.45,CN,1702176362
378,kijang,35.2442,129.2139,14.85,74,16,5.53,KR,1702176363
379,cowansville,45.2001,-72.7491,6.16,90,98,0.51,CA,1702176363
380,balaipungut,1.05,101.2833,28.98,74,100,1.18,ID,1702176363
381,kapoeta,4.7717,33.5903,27.45,43,64,5.0,SS,1702176364
382,smithers,54.7804,-127.1743,-2.82,93,100,3.6,CA,1702176364
383,kolonia,50.9333,6.95,10.59,67,75,9.26,DE,1702176365
384,rabaul,-4.1967,152.1721,28.4,75,100,7.25,PG,1702176365
385,laguna,38.421,-121.4238,10.6,76,0,1.54,US,1702176366
386,uturoa,-16.7333,-151.4333,26.96,81,66,8.43,PF,1702176366
387,ceerigaabo,10.6162,47.368,12.2,76,6,1.32,SO,1702176366
388,namie,37.4833,141.0,20.4,59,1,2.69,JP,1702176366
389,sacramento,38.4666,-121.3177,11.04,76,0,1.54,US,1702176124
390,saint-denis,48.9167,2.3333,9.5,82,75,6.69,FR,1702176367
391,fortuna,40.5982,-124.1573,7.03,92,0,0.0,US,1702176367
392,vorkuta,67.5,64.0,-23.75,100,100,2.02,RU,1702176367
393,paragominas,-2.9667,-47.4833,23.31,95,99,1.37,BR,1702176367
394,loreto,22.2667,-101.9667,15.49,43,11,0.69,MX,1702176367
395,akureyri,65.6835,-18.0878,-14.04,92,75,1.54,IS,1702176368
396,geraldton,-28.7667,114.6,29.23,14,0,11.32,AU,1702176107
397,nishinoomote,30.7333,131.0,22.31,68,40,4.63,JP,1702176368
398,brak,27.5496,14.2714,14.75,67,96,8.07,LY,1702176368
399,leppavirta,62.4901,27.7826,-11.7,94,100,2.68,FI,1702176369
400,santa isabel,-23.3156,-46.2214,18.87,92,100,2.77,BR,1702176369
401,atamanovka,51.93,113.63,-30.76,78,14,1.57,RU,1702176369
402,kollam,8.8833,76.6,27.22,76,55,4.22,IN,1702176369
403,pionerskiy,54.9508,20.2275,-2.09,87,100,5.04,RU,1702176369
404,cova figueira,14.8905,-24.2934,22.86,65,89,3.7,CV,1702176370
405,kayangel,8.0823,134.7173,28.61,76,100,5.83,PW,1702176370
406,menongue,-14.6585,17.691,18.96,88,100,2.18,AO,1702176370
407,el bolson,-41.9667,-71.5167,8.59,85,92,2.38,AR,1702176370
408,auki,-8.7676,160.7034,28.75,74,100,2.75,SB,1702176370
409,beipiao,41.7919,120.7792,-9.5,22,100,7.17,CN,1702176371
410,altania,-23.8744,-53.9017,22.66,91,0,4.35,BR,1702176371
411,inhambane,-23.865,35.3833,25.43,84,81,3.64,MZ,1702176371
412,kailua-kona,19.6406,-155.9956,27.9,76,20,4.12,US,1702176371
413,kuanda,56.3161,116.0806,-33.16,90,33,0.58,RU,1702176371
414,la serena,-29.9078,-71.2542,14.73,88,0,1.03,CL,1702176206
415,cambria,35.5641,-121.0808,14.47,45,63,0.45,US,1702176372
416,nicoya,10.1483,-85.452,24.77,83,2,3.2,CR,1702176372
417,kuqa,41.7278,82.9364,0.63,48,99,1.95,CN,1702176372
418,aripuana,-9.1667,-60.6333,23.34,92,78,0.44,BR,1702176372
419,karachev,53.1229,34.9852,-6.41,95,100,3.43,RU,1702176373
420,zoutleeuw,50.8332,5.1038,10.42,72,100,8.75,BE,1702176373
421,souda,35.4844,24.0744,11.63,87,75,0.0,GR,1702176373
422,yuanping,38.7153,112.7575,-0.03,49,100,2.74,CN,1702176373
423,morehead city,34.7229,-76.726,18.0,81,20,3.6,US,1702176373
424,beyneu,45.3167,55.2,-1.61,65,100,10.49,KZ,1702176374
425,singaraja,-8.112,115.0882,31.18,60,13,0.96,ID,1702176374
426,tofol,5.3248,163.0078,30.88,70,75,9.26,FM,1702176374
427,brookhaven,31.5791,-90.4407,18.81,98,58,2.55,US,1702176374
428,sao vicente,-23.9631,-46.3919,22.93,59,100,1.34,BR,1702176374
429,nabire,-3.3667,135.4833,26.27,88,100,1.07,ID,1702176375
430,tokmok,42.8417,75.3016,-5.54,76,100,0.89,KG,1702176375
431,yamada,39.4667,141.95,12.42,60,34,1.17,JP,1702176375
432,assab,13.0092,42.7394,25.53,69,1,10.54,ER,1702176375
433,larose,29.5724,-90.3818,21.68,90,12,3.08,US,1702176375
434,igarka,67.4667,86.5833,-41.49,100,83,1.86,RU,1702176375
435,nogliki,51.8333,143.1667,-14.25,88,100,6.71,RU,1702176376
436,ghat,24.9647,10.1728,9.51,56,0,4.32,LY,1702176376
437,idri,27.5,13.2667,14.62,66,100,10.86,LY,1702176376
438,langsa,4.4683,97.9683,28.71,73,100,1.55,ID,1702176376
439,byron bay,-28.65,153.6167,29.28,58,13,4.38,AU,1702176376
440,haenam,34.5711,126.5989,17.62,71,5,3.01,KR,1702176377
441,maumere,-8.6199,122.2111,30.52,67,76,2.2,ID,1702176377
442,choma,-16.8065,26.9531,21.45,48,34,0.67,ZM,1702176377
443,serenje,-13.2325,30.2352,17.38,84,98,0.9,ZM,1702176378
444,shchigry,51.8755,36.9043,-6.1,95,100,5.01,RU,1702176378
445,quibala,-10.7337,14.98,16.42,99,100,0.68,AO,1702176378
446,humaita,-7.5061,-63.0208,24.97,89,40,0.94,BR,1702176379
447,inari,68.906,27.0288,-14.89,93,89,3.68,FI,1702176379
448,petauke,-14.2426,31.3253,21.71,67,100,2.78,ZM,1702176380
449,buenavista del norte,28.3746,-16.861,22.24,71,1,5.06,ES,1702176380
450,ghadamis,30.1337,9.5007,11.77,77,75,6.29,LY,1702176380
451,santa ana de yacuma,-13.75,-65.4333,26.72,69,9,0.41,BO,1702176381
452,pedras de fogo,-7.4019,-35.1164,25.35,72,99,3.74,BR,1702176381
453,uzes,44.0167,4.4167,6.2,86,2,1.16,FR,1702176381
454,nanning,22.8167,108.3167,24.25,72,82,5.85,CN,1702176381
455,acireale,37.6125,15.1663,9.81,77,20,1.03,IT,1702176381
456,tambura,5.6,27.4667,22.39,47,4,1.07,SS,1702176381
457,ain sefra,32.75,-0.5833,8.08,70,56,1.63,DZ,1702176382
458,timimoun,29.2639,0.231,12.59,28,6,4.12,DZ,1702176382
459,keflavik,64.0049,-22.5624,1.24,86,40,2.06,IS,1702176382
460,save,8.0425,2.486,24.93,76,20,0.85,BJ,1702176382
461,cafayate,-26.073,-65.9761,20.62,72,84,1.94,AR,1702176382
462,tubarjal,30.4999,38.216,13.89,52,71,2.74,SA,1702176383
463,crucecita,-28.95,-58.9833,20.08,72,78,3.04,AR,1702176383
464,catumbela,-12.4314,13.5472,26.55,83,100,0.64,AO,1702176383
465,walvis bay,-22.9575,14.5053,15.61,94,0,3.09,NA,1702176384
466,puerto baquerizo moreno,-0.9,-89.6,23.64,91,2,4.84,EC,1702176384
467,berriane,32.8265,3.7669,9.35,55,4,3.15,DZ,1702176384
468,kavieng,-2.5744,150.7967,26.9,84,100,4.58,PG,1702176384
469,berezovo,63.9381,65.0419,-35.89,100,37,0.82,RU,1702176385
470,banda aceh,5.5577,95.3222,27.67,78,100,0.62,ID,1702176019
471,priyutnoye,46.1011,43.5072,1.04,78,100,9.17,RU,1702176385
472,itaueira,-7.6033,-43.0256,27.29,51,64,0.32,BR,1702176385
473,nueva guadalupe,13.5333,-88.35,22.59,69,20,0.87,SV,1702176385
474,tyukhtet,56.5389,89.3011,-35.74,100,62,1.65,RU,1702176386
475,linares,-35.85,-71.6,15.54,40,0,3.93,CL,1702176206
476,balapur,20.6667,76.7667,20.1,57,0,2.59,IN,1702176386
477,port macquarie,-31.4333,152.9167,28.27,60,0,6.72,AU,1702176386
478,santa clara del cobre,19.4,-101.65,11.11,86,16,1.25,MX,1702176386
479,susuman,62.7833,148.1667,-13.34,93,100,0.45,RU,1702176387
480,amos,48.5669,-78.1162,5.86,94,100,7.26,CA,1702176303
481,island harbour,50.724,-1.2758,11.07,84,3,3.58,GB,1702176387
482,mandalgovi,45.7625,106.2708,-13.95,42,100,4.9,MN,1702176387
483,port-vila,-17.7338,168.3219,27.78,65,75,7.2,VU,1702176387
484,bikenibeu village,1.3673,173.1241,30.98,74,75,2.57,KI,1702176388
485,kisangani,0.5167,25.2,21.94,99,100,1.88,CD,1702176388
486,guarapari,-20.6667,-40.4975,22.72,89,100,5.18,BR,1702176388
487,pagar alam,-4.0167,103.2667,28.07,61,97,1.03,ID,1702176388
488,qusmuryn,52.4503,64.6311,-29.52,100,38,0.7,KZ,1702176388
489,amasya,40.6667,35.8333,8.82,76,93,2.94,TR,1702176389
490,halifax,44.6453,-63.5724,1.0,92,90,0.73,CA,1702175812
491,thunder bay,48.4001,-89.3168,-1.01,69,100,5.66,CA,1702176369
492,polyarnyy,69.1989,33.4478,-14.08,94,65,7.12,RU,1702176389
493,hradek nad nisou,50.8528,14.8446,2.36,95,100,3.13,CZ,1702176389
494,bandarbeyla,9.4942,50.8122,24.77,79,16,7.76,SO,1702176389
495,yuzhno-kurilsk,44.0306,145.8556,3.54,75,92,6.24,RU,1702176390
496,puerto ayacucho,5.6639,-67.6236,23.77,95,98,1.67,VE,1702176390
497,sheridan,44.8333,-106.9173,-6.79,73,0,2.57,US,1702176390
498,ambodifotatra,-16.9833,49.85,25.69,83,88,1.02,MG,1702176391
499,madalena,41.2162,-8.3345,16.32,99,100,2.01,PT,1702176391
500,medyn',54.9692,35.8586,-10.14,92,100,4.02,RU,1702176393
501,berezovyy,51.6667,135.7,-16.41,50,37,3.41,RU,1702176393
502,san pedro pochutla,15.7333,-96.4667,23.96,80,95,1.15,MX,1702176378
503,wapakoneta,40.5678,-84.1936,8.58,92,0,2.57,US,1702176283
504,sinop,41.7711,34.8709,6.78,91,100,4.61,TR,1702176394
505,kiama,-34.6833,150.8667,24.44,84,100,4.02,AU,1702176394
506,okha,53.5739,142.9478,-16.83,95,100,12.25,RU,1702176394
507,libreville,0.3925,9.4537,25.23,89,76,2.38,GA,1702176395
508,tottori,35.5,134.2333,19.04,59,40,1.03,JP,1702176284
509,kertih,4.5141,103.4483,29.01,79,20,2.57,MY,1702176395
510,g'azalkent,41.5581,69.7708,-3.06,61,45,4.47,UZ,1702176396
511,sumbe,-11.2061,13.8437,25.65,86,96,1.9,AO,1702176396
512,arar,30.9753,41.0381,11.01,71,0,2.57,SA,1702176396
513,negapatam,10.7667,79.8333,27.59,79,10,5.57,IN,1702176396
514,manismata,-2.4667,111.0333,26.02,92,96,1.16,ID,1702176396
515,virginia,37.5481,-77.4467,13.56,87,40,3.09,US,1702176236
516,rapid city,44.0805,-103.231,-0.15,65,0,2.68,US,1702176136
517,milford haven,51.7128,-5.0341,10.62,81,99,8.47,GB,1702176397
518,nuku'alofa,-21.1333,-175.2,24.19,88,100,5.66,TO,1702176397
519,al bayda',32.7627,21.7551,10.62,70,99,4.02,LY,1702176397
520,altamira,-3.2033,-52.2064,25.38,79,93,0.84,BR,1702176397
521,belyy yar,53.6039,91.3903,-33.06,75,84,0.0,RU,1702176397
522,mossel bay,-34.1831,22.146,14.96,80,16,2.51,ZA,1702176398
523,cabedelo,-6.9811,-34.8339,26.37,71,91,5.86,BR,1702176398
524,el triunfo,-1.9333,-79.9667,27.02,76,89,2.0,EC,1702176398
525,salalah,17.0151,54.0924,24.05,50,0,3.6,OM,1702176398
526,zouerate,22.7187,-12.4521,19.66,25,100,4.34,MR,1702176181
527,margate,51.3813,1.3862,9.37,69,6,5.81,GB,1702176399
528,ganye,8.4333,12.0667,21.09,28,65,0.95,NG,1702176399
529,yanykurgan,43.915,67.2481,-6.32,39,98,3.43,KZ,1702176399
530,koungou,-12.7336,45.2042,27.84,83,75,4.63,YT,1702176400
531,monteagudo,-19.8167,-63.9833,19.78,86,100,1.31,BO,1702176400
532,poyarkovo,49.6,128.6833,-22.46,81,13,5.2,RU,1702176400
533,jackson,42.4165,-122.8345,4.33,87,0,0.0,US,1702176297
534,marka,1.7159,44.7717,25.69,81,22,5.31,SO,1702176400
535,georgetown,5.4112,100.3354,30.96,70,20,2.57,MY,1702176401
536,saldanha,-33.0117,17.9442,13.03,86,0,6.09,ZA,1702176401
537,madang,-5.2246,145.7966,29.78,76,100,4.03,PG,1702176401
538,loudi,27.7344,111.9944,17.69,80,100,2.72,CN,1702176401
539,palembang,-2.9167,104.7458,29.05,84,40,3.6,ID,1702176401
540,iquique,-20.2208,-70.1431,20.02,70,62,0.22,CL,1702176401
541,huarmey,-10.0681,-78.1522,20.22,86,100,3.82,PE,1702176402
542,pacific grove,36.6177,-121.9166,13.77,74,0,0.45,US,1702176402
543,poggiardo,40.0542,18.3791,10.04,61,5,1.21,IT,1702176402
544,terrace,54.5163,-128.6035,0.95,93,100,1.54,CA,1702176144
545,new norfolk,-42.7826,147.0587,21.51,24,8,1.55,AU,1702176402
546,bonnyville,54.2668,-110.735,-9.11,74,100,2.22,CA,1702176402
547,demopolis,32.5176,-87.8364,20.97,83,75,2.57,US,1702176402
548,pudozh,61.8099,36.5345,-16.7,97,100,1.34,RU,1702176403
549,aioun,16.6614,-9.6149,20.62,22,67,4.88,MR,1702176403
550,maragogi,-9.0122,-35.2225,25.73,73,100,3.62,BR,1702176282
551,oeiras,-7.0253,-42.1311,27.44,47,62,0.85,BR,1702176403
552,portales,34.1862,-103.3344,0.98,58,0,4.4,US,1702176403
553,malpica,43.3228,-8.8105,17.96,79,100,7.74,ES,1702176404
554,kharp,66.8014,65.8081,-25.61,98,30,1.79,RU,1702176404
555,nasiriyah,31.0521,46.261,18.59,46,86,2.97,IQ,1702176404
556,la jolla,32.8473,-117.2742,18.14,40,0,1.79,US,1702176285
557,isla mujeres,21.2311,-86.731,27.03,84,33,5.47,MX,1702176404
558,kerikeri,-35.2268,173.9474,26.06,56,86,0.45,NZ,1702176404
559,papao,-17.75,-149.55,29.82,85,86,11.72,PF,1702176405
560,mount pearl,47.5166,-52.7813,1.64,87,75,10.8,CA,1702176221
561,luderitz,-26.6481,15.1594,14.67,83,0,9.06,NA,1702176405
562,longmen,24.9597,118.0889,22.34,55,1,0.88,CN,1702176406
